{
    "status":0,
    "message":"ok",
    "result_type":"poi_type",
    "results":[
        {
            "name":"华中师范大学",
            "location":{
                "lat":30.524004,
                "lng":114.367216
            },
            "address":"武汉市洪山区珞喻路152号",
            "province":"湖北省",
            "city":"武汉市",
            "area":"洪山区",
            "street_id":"46632e0c06a3e297d5b74e27",
            "telephone":"(027)67863404",
            "detail":1,
            "uid":"46632e0c06a3e297d5b74e27"
        },
        {
            "name":"中南财经政法大学(首义校区)",
            "location":{
                "lat":30.542779,
                "lng":114.319833
            },
            "address":"武汉市武昌区武珞路114号",
            "province":"湖北省",
            "city":"武汉市",
            "area":"武昌区",
            "street_id":"046b45b653fe24e5c4f02583",
            "telephone":"(027)88386114",
            "detail":1,
            "uid":"046b45b653fe24e5c4f02583"
        },
        {
            "name":"武汉纺织大学(阳光校区)",
            "location":{
                "lat":30.382144,
                "lng":114.344906
            },
            "address":"湖北省武汉市江夏区阳光大道1号",
            "province":"湖北省",
            "city":"武汉市",
            "area":"江夏区",
            "street_id":"0a7f38d0031b1310167643a1",
            "telephone":"(027)59367510",
            "detail":1,
            "uid":"0a7f38d0031b1310167643a1"
        },
        {
            "name":"武汉文理学院",
            "location":{
                "lat":30.739369,
                "lng":114.423047
            },
            "address":"湖北省武汉市黄陂区胜海大道1号",
            "province":"湖北省",
            "city":"武汉市",
            "area":"黄陂区",
            "street_id":"861c39014ebcd564fb2d6121",
            "telephone":"(027)61818596",
            "detail":1,
            "uid":"861c39014ebcd564fb2d6121"
        },
        {
            "name":"中南财经政法大学(南湖校区)",
            "location":{
                "lat":30.480725,
                "lng":114.392191
            },
            "address":"武汉市东湖高新技术开发区南湖大道182号",
            "province":"湖北省",
            "city":"武汉市",
            "area":"江夏区",
            "street_id":"017e4a04597f538c230220ac",
            "telephone":"(027)88386114",
            "detail":1,
            "uid":"017e4a04597f538c230220ac"
        },
        {
            "name":"华中农业大学",
            "location":{
                "lat":30.48178,
                "lng":114.363708
            },
            "address":"湖北省武汉市洪山区狮子山街1号",
            "province":"湖北省",
            "city":"武汉市",
            "area":"洪山区",
            "street_id":"2c1b43e4a25851522902e197",
            "telephone":"(027)87395964",
            "detail":1,
            "uid":"2c1b43e4a25851522902e197"
        },
        {
            "name":"武汉生物工程学院",
            "location":{
                "lat":30.718908,
                "lng":114.533094
            },
            "address":"武汉市新洲区汉施路1号",
            "province":"湖北省",
            "city":"武汉市",
            "area":"新洲区",
            "street_id":"edf9ca3ecbc38b2a4e776eff",
            "telephone":"(027)89649828,(027)89649868",
            "detail":1,
            "uid":"edf9ca3ecbc38b2a4e776eff"
        },
        {
            "name":"湖北大学(阳逻校区)",
            "location":{
                "lat":30.652282,
                "lng":114.590649
            },
            "address":"湖北省武汉市新洲区阳逻经济技术开发区平江东路630号",
            "province":"湖北省",
            "city":"武汉市",
            "area":"新洲区",
            "street_id":"d5f93c0ef719585feddfcac6",
            "telephone":"(027)89637963",
            "detail":1,
            "uid":"d5f93c0ef719585feddfcac6"
        },
        {
            "name":"湖北大学知行学院",
            "location":{
                "lat":30.695386,
                "lng":114.379343
            },
            "address":"湖北省武汉市江岸区谌家矶街兴盛大道特1号",
            "province":"湖北省",
            "city":"武汉市",
            "area":"江岸区",
            "street_id":"656e5f4ba0f85938a8059dec",
            "telephone":"(027)82300410",
            "detail":1,
            "uid":"656e5f4ba0f85938a8059dec"
        },
        {
            "name":"华中科技大学(东校区)",
            "location":{
                "lat":30.517062,
                "lng":114.438204
            },
            "address":"湖北省武汉市洪山区珞喻东路415号",
            "province":"湖北省",
            "city":"武汉市",
            "area":"洪山区",
            "street_id":"505054d61dbdcb07b5147f80",
            "telephone":"(027)87541114",
            "detail":1,
            "uid":"505054d61dbdcb07b5147f80"
        }
    ]
}
{
    "status":0,
    "message":"ok",
    "result_type":"poi_type",
    "results":[
        {
            "name":"武汉理工大学(马房山校区)",
            "location":{
                "lat":30.526212,
                "lng":114.357936
            },
            "address":"武汉市洪山区珞狮路205号",
            "province":"湖北省",
            "city":"武汉市",
            "area":"洪山区",
            "street_id":"c90be7355c7ace6b5a3ac826",
            "telephone":"(027)87859017",
            "detail":1,
            "uid":"c90be7355c7ace6b5a3ac826"
        },
        {
            "name":"武汉理工大学(余家头校区)",
            "location":{
                "lat":30.613258,
                "lng":114.362864
            },
            "address":"湖北省武汉市武昌区和平大道1178号",
            "province":"湖北省",
            "city":"武汉市",
            "area":"武昌区",
            "street_id":"2a504e496f69e0cc2bd7ab37",
            "telephone":"(027)86554447",
            "detail":1,
            "uid":"2a504e496f69e0cc2bd7ab37"
        },
        {
            "name":"武汉理工大学(鉴湖校区)",
            "location":{
                "lat":30.519799,
                "lng":114.350349
            },
            "address":"湖北省武汉市洪山区工大路21号",
            "province":"湖北省",
            "city":"武汉市",
            "area":"洪山区",
            "street_id":"28961147bbfe93e4f02d8318",
            "detail":1,
            "uid":"28961147bbfe93e4f02d8318"
        },
        {
            "name":"武汉理工大学",
            "location":{
                "lat":30.518487,
                "lng":114.345082
            },
            "address":"湖北省武汉市洪山区石牌岭路258号",
            "province":"湖北省",
            "city":"武汉市",
            "area":"洪山区",
            "street_id":"4c347a11a35f8ea03310af4c",
            "telephone":"(027)87850156",
            "detail":1,
            "uid":"4c347a11a35f8ea03310af4c"
        },
        {
            "name":"武汉理工大学(鉴湖校区)-主教学楼",
            "location":{
                "lat":30.519137,
                "lng":114.350409
            },
            "address":"湖北省武汉市洪山区工大路21号",
            "province":"湖北省",
            "city":"武汉市",
            "area":"洪山区",
            "street_id":"162e9d8aafbcd76aab175aeb",
            "detail":1,
            "uid":"162e9d8aafbcd76aab175aeb"
        },
        {
            "name":"武汉理工大学-经济学院",
            "location":{
                "lat":30.521242,
                "lng":114.352797
            },
            "address":"湖北省武汉市洪山区工大路25号",
            "province":"湖北省",
            "city":"武汉市",
            "area":"洪山区",
            "street_id":"3f41146983f0f4b39d95de89",
            "detail":1,
            "uid":"3f41146983f0f4b39d95de89"
        },
        {
            "name":"武汉理工大学(余家头校区)-东门",
            "location":{
                "lat":30.612821,
                "lng":114.367491
            },
            "address":"湖北省武汉市武昌区友谊大道",
            "province":"湖北省",
            "city":"武汉市",
            "area":"武昌区",
            "street_id":"1f90d3d85113b6acb04c49c2",
            "detail":1,
            "uid":"1f90d3d85113b6acb04c49c2"
        },
        {
            "name":"武汉理工大学(余家头校区)-北门",
            "location":{
                "lat":30.614196,
                "lng":114.361632
            },
            "address":"湖北省武汉市武昌区交通四路与青年园南路交叉口东100米",
            "province":"湖北省",
            "city":"武汉市",
            "area":"武昌区",
            "street_id":"f12a3eaea70be61388f15dad",
            "detail":1,
            "uid":"f12a3eaea70be61388f15dad"
        },
        {
            "name":"武汉理工大学(余家头校区)-内1号门",
            "location":{
                "lat":30.614829,
                "lng":114.360912
            },
            "address":"湖北省武汉市武昌区交通四路附近",
            "province":"湖北省",
            "city":"武汉市",
            "area":"武昌区",
            "street_id":"5514a7875ac386cd260bd079",
            "detail":1,
            "uid":"5514a7875ac386cd260bd079"
        },
        {
            "name":"武汉理工大学(余家头校区)-西门",
            "location":{
                "lat":30.610151,
                "lng":114.358763
            },
            "address":"武汉市武昌区铁机路202号附近",
            "province":"湖北省",
            "city":"武汉市",
            "area":"武昌区",
            "street_id":"84eaec3b9204b027c9c3db26",
            "detail":1,
            "uid":"84eaec3b9204b027c9c3db26"
        }
    ]
}
{
    "status":0,
    "message":"ok",
    "result_type":"poi_type",
    "results":[
        {
            "name":"武汉大学(文理学部)",
            "location":{
                "lat":30.543803,
                "lng":114.37293
            },
            "address":"湖北省武汉市武昌区珞珈山16号",
            "province":"湖北省",
            "city":"武汉市",
            "area":"武昌区",
            "street_id":"36f58b6c1dbcac69cd04ef07",
            "telephone":"(027)68755114",
            "detail":1,
            "uid":"36f58b6c1dbcac69cd04ef07"
        },
        {
            "name":"武汉大学(信息学部)",
            "location":{
                "lat":30.534872,
                "lng":114.365818
            },
            "address":"湖北省武汉市洪山区珞喻路129号",
            "province":"湖北省",
            "city":"武汉市",
            "area":"洪山区",
            "street_id":"c08618d8a1cb737fb5147f30",
            "telephone":"(027)68779405",
            "detail":1,
            "uid":"c08618d8a1cb737fb5147f30"
        },
        {
            "name":"武汉大学(医学部)",
            "location":{
                "lat":30.560407,
                "lng":114.360243
            },
            "address":"武汉市武昌区东湖路115号",
            "province":"湖北省",
            "city":"武汉市",
            "area":"武昌区",
            "street_id":"1c0d5881a47dc04421f017d0",
            "telephone":"(027)68758689",
            "detail":1,
            "uid":"1c0d5881a47dc04421f017d0"
        },
        {
            "name":"武汉大学-大门",
            "location":{
                "lat":30.539697,
                "lng":114.364654
            },
            "address":"武汉市武昌区八一路299号",
            "province":"湖北省",
            "city":"武汉市",
            "area":"武昌区",
            "street_id":"8afefcb15d687621abf0cd7f",
            "detail":1,
            "uid":"8afefcb15d687621abf0cd7f"
        },
        {
            "name":"武汉大学-樱花城堡",
            "location":{
                "lat":30.545971,
                "lng":114.3703
            },
            "address":"湖北省武汉市武昌区樱花大道附近(武汉大学内)",
            "province":"湖北省",
            "city":"武汉市",
            "area":"武昌区",
            "street_id":"",
            "telephone":"(027)68755114",
            "detail":1,
            "uid":"c0868215062d9755744ff175"
        },
        {
            "name":"武汉大学-西门",
            "location":{
                "lat":30.541757,
                "lng":114.363463
            },
            "address":"湖北省武汉市武昌区珞珈山16号",
            "province":"湖北省",
            "city":"武汉市",
            "area":"武昌区",
            "street_id":"a050cad5e9d1fa8733169b2e",
            "detail":1,
            "uid":"a050cad5e9d1fa8733169b2e"
        },
        {
            "name":"武汉大学(文理学部)-南2门",
            "location":{
                "lat":30.537596,
                "lng":114.369706
            },
            "address":"武汉市武昌区八一路299号",
            "province":"湖北省",
            "city":"武汉市",
            "area":"武昌区",
            "street_id":"1c3448cb1f79646ca1046458",
            "detail":1,
            "uid":"1c3448cb1f79646ca1046458"
        },
        {
            "name":"武汉大学(医学部)-正门",
            "location":{
                "lat":30.558372,
                "lng":114.362161
            },
            "address":"武汉市武昌区东湖路115号武汉大学医学部内",
            "province":"湖北省",
            "city":"武汉市",
            "area":"武昌区",
            "street_id":"eeaae3c783d0e5e4d3ff2380",
            "detail":1,
            "uid":"eeaae3c783d0e5e4d3ff2380"
        },
        {
            "name":"国立武汉大学-牌坊",
            "location":{
                "lat":30.53946,
                "lng":114.364331
            },
            "address":"武汉市武昌区珞珈山路八一路武汉大学南门",
            "province":"湖北省",
            "city":"武汉市",
            "area":"武昌区",
            "street_id":"8e846728358f385ef82d615f",
            "detail":1,
            "uid":"8e846728358f385ef82d615f"
        },
        {
            "name":"武汉学院",
            "location":{
                "lat":30.447796,
                "lng":114.302535
            },
            "address":"湖北省武汉市江夏区黄家湖大道333号",
            "province":"湖北省",
            "city":"武汉市",
            "area":"江夏区",
            "street_id":"29da923f4d740b96132935f8",
            "telephone":"(027)81299779",
            "detail":1,
            "uid":"29da923f4d740b96132935f8"
        }
    ]
}
{
    "status":0,
    "message":"ok",
    "result_type":"poi_type",
    "results":[
        {
            "name":"武汉市光谷第二高级中学",
            "location":{
                "lat":30.441373,
                "lng":114.456665
            },
            "address":"武汉市江夏区高新技术开发区富士康西路与流芳路交界处(佛祖岭A区旁边)",
            "province":"湖北省",
            "city":"武汉市",
            "area":"江夏区",
            "street_id":"c61bd30527d5db68c27da2da",
            "telephone":"(027)87948268",
            "detail":1,
            "uid":"c61bd30527d5db68c27da2da"
        },
        {
            "name":"武汉市关山中学",
            "location":{
                "lat":30.502163,
                "lng":114.415332
            },
            "address":"湖北省武汉市洪山区雄楚大道1062号",
            "province":"湖北省",
            "city":"武汉市",
            "area":"洪山区",
            "street_id":"f60a15ededc75eecba17e79b",
            "detail":1,
            "uid":"f60a15ededc75eecba17e79b"
        },
        {
            "name":"武汉二中广雅中学",
            "location":{
                "lat":30.610466,
                "lng":114.317788
            },
            "address":"湖北省武汉市江岸区胜利街310号",
            "province":"湖北省",
            "city":"武汉市",
            "area":"江岸区",
            "street_id":"fd909566f6384498128824ed",
            "telephone":"(027)82711207",
            "detail":1,
            "uid":"fd909566f6384498128824ed"
        },
        {
            "name":"华中师大一附中",
            "location":{
                "lat":30.459763,
                "lng":114.397569
            },
            "address":"湖北省武汉市江夏区汤逊湖北路1号",
            "province":"湖北省",
            "city":"武汉市",
            "area":"江夏区",
            "street_id":"320fd9948ac4726330621223",
            "telephone":"(027)87920649",
            "detail":1,
            "uid":"320fd9948ac4726330621223"
        },
        {
            "name":"武汉市马房山中学",
            "location":{
                "lat":30.522136,
                "lng":114.357778
            },
            "address":"湖北省武汉市洪山区珞南街道珞狮路395号",
            "province":"湖北省",
            "city":"武汉市",
            "area":"洪山区",
            "street_id":"593850fb4feed85dde1e5293",
            "telephone":"(027)87390144",
            "detail":1,
            "uid":"593850fb4feed85dde1e5293"
        },
        {
            "name":"武汉市武珞路实验初级中学",
            "location":{
                "lat":30.542716,
                "lng":114.335151
            },
            "address":"湖北省武汉市武昌区武珞路387-1-1号",
            "province":"湖北省",
            "city":"武汉市",
            "area":"武昌区",
            "street_id":"e30828482ff7e3bcb24c49bc",
            "telephone":"(027)87813048",
            "detail":1,
            "uid":"e30828482ff7e3bcb24c49bc"
        },
        {
            "name":"武汉市第十二中学",
            "location":{
                "lat":30.595031,
                "lng":114.266585
            },
            "address":"湖北省武汉市江汉区航空小路15号",
            "province":"湖北省",
            "city":"武汉市",
            "area":"江汉区",
            "street_id":"fd007c5e0fc40412a8f729cc",
            "telephone":"(027)83613972",
            "detail":1,
            "uid":"fd007c5e0fc40412a8f729cc"
        },
        {
            "name":"武汉市翠微中学",
            "location":{
                "lat":30.556194,
                "lng":114.254522
            },
            "address":"湖北省武汉市汉阳区马沧湖路54号",
            "province":"湖北省",
            "city":"武汉市",
            "area":"汉阳区",
            "street_id":"eef2d5288cd835d93ae4a6be",
            "detail":1,
            "uid":"eef2d5288cd835d93ae4a6be"
        },
        {
            "name":"武汉经济技术开发区第一初级中学",
            "location":{
                "lat":30.500815,
                "lng":114.171068
            },
            "address":"湖北省武汉市蔡甸区神龙大道70号",
            "province":"湖北省",
            "city":"武汉市",
            "area":"蔡甸区",
            "street_id":"b292b3aa58429956bf484281",
            "telephone":"(027)84226102,(027)84226241",
            "detail":1,
            "uid":"b292b3aa58429956bf484281"
        },
        {
            "name":"华中科技大学附属中学(新校区)",
            "location":{
                "lat":30.52308,
                "lng":114.435704
            },
            "address":"湖北省武汉市洪山区喻家湖路30号",
            "province":"湖北省",
            "city":"武汉市",
            "area":"洪山区",
            "street_id":"5a5eb5645221cd48f4231073",
            "telephone":"(027)87556844",
            "detail":1,
            "uid":"5a5eb5645221cd48f4231073"
        }
    ]
}
{
            "name":"中百仓储(南湖购物广场店)",
            "location":{
                "lat":30.507997,
                "lng":114.343159
            },
            "address":"湖北省武汉市洪山区书城路38号",
            "province":"湖北省",
            "city":"武汉市",
            "area":"洪山区",
            "street_id":"e116be545be6df62c81b95e9",
            "telephone":"(027)87675610",
            "detail":1,
            "uid":"e116be545be6df62c81b95e9"
        }

批量算路格式例子：
https://api.map.baidu.com/routematrix/v2/driving?output=json&origins=30.555396,114.352807&destinations=30.507997,114.343159|30.524004,114.367216|30.542779,114.319833|30.382144,114.344906|30.739369,114.423047|30.480725,114.392191|30.48178,114.363708|30.718908,114.533094|30.652282,114.590649|30.517062,114.438204|30.526212,114.357936|30.519799,114.350349|30.543803,114.37293|30.525749,114.408655|30.491874,114.399395|30.521832,114.346817|30.485946,114.278973|30.526661,114.385028|30.52308,114.435704|30.542716,114.335151|30.610466,114.317788|30.502163,114.415332|30.441373,114.456665|30.55349,114.318588|30.557894,114.309996|30.537842,114.360136&ak=Zi4M7IVnL5sXTSvP2eGkGTDlOhF2hVG0

